{
  "rooms": [
    {
      "id": "0",
      "name": "Bagno",
      "filename": "bagno80.jpg",
      "links": [
        {
          "nodeId": "3",
          "longitude": 1.7163700025373894,
          "latitude": -0.3393454092448218
        }
      ]
    },
    {
      "id": "1",
      "name": "Camera adulti",
      "filename": "cameraadu80.jpg",
      "links": [
        {
          "nodeId": "3",
          "longitude": 2.342409294569256,
          "latitude": -0.21664265991468
        }
      ]
    },
    {
      "id": "2",
      "name": "Camera ragazzi",
      "filename": "camerarag80.jpg",
      "links": [
        {
          "nodeId": "3",
          "longitude": 2.381745328184585,
          "latitude": -0.2539243514677576
        }
      ]
    },
    {
      "id": "3",
      "name": "Corridoio",
      "filename": "corridoio80.jpg",
      "links": [
        {
          "nodeId": "1",
          "longitude": 5.901204111715142,
          "latitude": -0.20567268819219486
        },
        {
          "nodeId": "2",
          "longitude": 6.282000136356481,
          "latitude": -0.09154832075337627
        },
        {
          "nodeId": "0",
          "longitude": 0.09909022666276383,
          "latitude": -0.05566236664009261
        },
        {
          "nodeId": "7",
          "longitude": 0.34721853313081674,
          "latitude": -0.04849720368965604
        },
        {
          "nodeId": "4",
          "longitude": 0.3827875263066303,
          "latitude": -0.06607193741072015
        },
        {
          "nodeId": "5",
          "longitude": 0.48152263448747196,
          "latitude": -0.11749647963572207
        },
        {
          "nodeId": "6",
          "longitude": 0.8662146830213148,
          "latitude": -0.29841885913499633
        }
      ]
    },
    {
      "id": "4",
      "name": "Cucina",
      "filename": "cucina80.jpg",
      "links": [
        {
          "nodeId": "7",
          "longitude": 4.33027887255425,
          "latitude": -0.3019474006314449
        },
        {
          "nodeId": "3",
          "longitude": 2.731726834492993,
          "latitude": -0.4758430445288968
        }
      ]
    },
    {
      "id": "5",
      "name": "Garage",
      "filename": "garage80.jpg",
      "links": [
        {
          "nodeId": "6",
          "longitude": 0.6330374425513289,
          "latitude": -0.2461046297578675
        }
      ]
    },
    {
      "id": "6",
      "name": "Giardino",
      "filename": "giardino80.jpg",
      "links": [
        {
          "nodeId": "5",
          "longitude": 5.20837521072715,
          "latitude": -0.1682747878755464
        }
      ]
    },
    {
      "id": "7",
      "name": "Sala",
      "filename": "sala80.jpg",
      "links": [
        {
          "nodeId": "3",
          "longitude": 4.0342136290013855,
          "latitude": -0.20780208002375722
        },
        {
          "nodeId": "4",
          "longitude": 0.6837139190016096,
          "latitude": -0.2960135347059456
        }
      ]
    }
  ]
}