{
  "rooms": [
    {
      "id": "0",
      "name": "Bagno",
      "filename": "bagno80.jpg",
      "links": [
        {
          "nodeId": "3",
          "longitude": 1.1796646947417075,
          "latitude": -0.4123359709801493
        }
      ]
    },
    {
      "id": "1",
      "name": "Camera adulti",
      "filename": "cameraadu80.jpg",
      "links": [
        {
          "nodeId": "3",
          "longitude": 2.3310021834698045,
          "latitude": -0.24467413623255174
        }
      ]
    },
    {
      "id": "2",
      "name": "Camera ragazzi",
      "filename": "camerarag80.jpg",
      "links": [
        {
          "nodeId": "3",
          "longitude": 2.3754033171420605,
          "latitude": -0.3203652562893813
        }
      ]
    },
    {
      "id": "3",
      "name": "Corridoio",
      "filename": "corridoio80.jpg",
      "links": [
        {
          "nodeId": "1",
          "longitude": 5.8921375996504475,
          "latitude": -0.22286124554569708
        },
        {
          "nodeId": "2",
          "longitude": 0.0031802840219593252,
          "latitude": -0.06913098414589025
        },
        {
          "nodeId": "0",
          "longitude": 0.11194672564567348,
          "latitude": -0.03637543063641169
        },
        {
          "nodeId": "7",
          "longitude": 0.34283607525963067,
          "latitude": -0.03536170275526018
        },
        {
          "nodeId": "4",
          "longitude": 0.380829028755088,
          "latitude": -0.04189699400964697
        },
        {
          "nodeId": "5",
          "longitude": 0.48210887394625607,
          "latitude": -0.08776351855091469
        },
        {
          "nodeId": "6",
          "longitude": 0.8008717277924723,
          "latitude": -0.20034798761031425
        }
      ]
    },
    {
      "id": "4",
      "name": "Cucina",
      "filename": "cucina80.jpg",
      "links": [
        {
          "nodeId": "3",
          "longitude": 2.72365706815809,
          "latitude": -0.2837069079400776
        },
        {
          "nodeId": "7",
          "longitude": 4.3411665473103715,
          "latitude": -0.21600911529076305
        }
      ]
    },
    {
      "id": "5",
      "name": "Garage",
      "filename": "garage80.jpg",
      "links": [
        {
          "nodeId": "6",
          "longitude": 0.5797148365155825,
          "latitude": -0.12576267285924403
        }
      ]
    },
    {
      "id": "6",
      "name": "Giardino",
      "filename": "giardino80.jpg",
      "links": [
        {
          "nodeId": "5",
          "longitude": 5.199890352542613,
          "latitude": -0.12621185358313958
        }
      ]
    },
    {
      "id": "7",
      "name": "Sala",
      "filename": "sala80.jpg",
      "links": [
        {
          "nodeId": "4",
          "longitude": 0.6467118398251109,
          "latitude": -0.012069238734337517
        },
        {
          "nodeId": "3",
          "longitude": 4.036440400504187,
          "latitude": -0.12185814403858508
        }
      ]
    }
  ]
}